---
triple:          'x86_64-apple-darwin'
binary-path:     mavlink_control
relocations:
  - { offsetInCU: 0x3F, offset: 0x3F, size: 0x8, addend: 0x0, symName: _autopilot_interface_quit, symObjAddr: 0x12048, symBinAddr: 0x100010000, symSize: 0x0 }
  - { offsetInCU: 0x3BAF, offset: 0x3BAF, size: 0x8, addend: 0x0, symName: _port_quit, symObjAddr: 0x12050, symBinAddr: 0x100010008, symSize: 0x0 }
  - { offsetInCU: 0x5E10, offset: 0x5E10, size: 0x8, addend: 0x0, symName: __Z3topiPPc, symObjAddr: 0x0, symBinAddr: 0x100000B30, symSize: 0x2E0 }
  - { offsetInCU: 0x5EC4, offset: 0x5EC4, size: 0x8, addend: 0x0, symName: __Z17parse_commandlineiPPcRS_RiRbS1_S2_S3_, symObjAddr: 0x2E0, symBinAddr: 0x100000E10, symSize: 0x400 }
  - { offsetInCU: 0x5F83, offset: 0x5F83, size: 0x8, addend: 0x0, symName: __Z12quit_handleri, symObjAddr: 0x6E0, symBinAddr: 0x100001210, symSize: 0xE0 }
  - { offsetInCU: 0x5FCB, offset: 0x5FCB, size: 0x8, addend: 0x0, symName: __Z8commandsR19Autopilot_Interfaceb, symObjAddr: 0x7C0, symBinAddr: 0x1000012F0, symSize: 0x630 }
  - { offsetInCU: 0x6100, offset: 0x6100, size: 0x8, addend: 0x0, symName: _main, symObjAddr: 0xE00, symBinAddr: 0x100001930, symSize: 0xBD }
  - { offsetInCU: 0x46, offset: 0x61B7, size: 0x8, addend: 0x0, symName: __ZL21mavlink_get_msg_entryj, symObjAddr: 0x1B80, symBinAddr: 0x100003560, symSize: 0xE0 }
  - { offsetInCU: 0x71, offset: 0x61E2, size: 0x8, addend: 0x0, symName: __ZZL21mavlink_get_msg_entryjE20mavlink_message_crcs, symObjAddr: 0x2DC0, symBinAddr: 0x10000A1F0, symSize: 0x0 }
  - { offsetInCU: 0x155, offset: 0x62C6, size: 0x8, addend: 0x0, symName: __ZL27mavlink_sha256_constant_256, symObjAddr: 0x3580, symBinAddr: 0x10000A9B0, symSize: 0x0 }
  - { offsetInCU: 0x173, offset: 0x62E4, size: 0x8, addend: 0x0, symName: __ZL26mavlink_get_channel_bufferh, symObjAddr: 0x1280, symBinAddr: 0x100002C60, symSize: 0x30 }
  - { offsetInCU: 0x19C, offset: 0x630D, size: 0x8, addend: 0x0, symName: __ZZL26mavlink_get_channel_bufferhE16m_mavlink_buffer, symObjAddr: 0xA830, symBinAddr: 0x100010010, symSize: 0x0 }
  - { offsetInCU: 0x1CE, offset: 0x633F, size: 0x8, addend: 0x0, symName: __ZL26mavlink_get_channel_statush, symObjAddr: 0x12B0, symBinAddr: 0x100002C90, symSize: 0x20 }
  - { offsetInCU: 0x1F7, offset: 0x6368, size: 0x8, addend: 0x0, symName: __ZZL26mavlink_get_channel_statushE16m_mavlink_status, symObjAddr: 0xBA60, symBinAddr: 0x100011240, symSize: 0x0 }
  - { offsetInCU: 0xBD2, offset: 0x6D43, size: 0x8, addend: 0x0, symName: __ZN11Serial_PortC2EPKci, symObjAddr: 0x0, symBinAddr: 0x1000019F0, symSize: 0x90 }
  - { offsetInCU: 0xC18, offset: 0x6D89, size: 0x8, addend: 0x0, symName: __ZN12Generic_PortC2Ev, symObjAddr: 0x90, symBinAddr: 0x100001A80, symSize: 0x20 }
  - { offsetInCU: 0xC40, offset: 0x6DB1, size: 0x8, addend: 0x0, symName: __ZN11Serial_Port19initialize_defaultsEv, symObjAddr: 0xB0, symBinAddr: 0x100001AA0, symSize: 0x90 }
  - { offsetInCU: 0xC74, offset: 0x6DE5, size: 0x8, addend: 0x0, symName: __ZN12Generic_PortD2Ev, symObjAddr: 0x140, symBinAddr: 0x100001B30, symSize: 0x10 }
  - { offsetInCU: 0xC9C, offset: 0x6E0D, size: 0x8, addend: 0x0, symName: __ZN11Serial_PortC1EPKci, symObjAddr: 0x160, symBinAddr: 0x100001B40, symSize: 0x30 }
  - { offsetInCU: 0xCE2, offset: 0x6E53, size: 0x8, addend: 0x0, symName: __ZN11Serial_PortC2Ev, symObjAddr: 0x190, symBinAddr: 0x100001B70, symSize: 0x70 }
  - { offsetInCU: 0xD0C, offset: 0x6E7D, size: 0x8, addend: 0x0, symName: __ZN11Serial_PortC1Ev, symObjAddr: 0x200, symBinAddr: 0x100001BE0, symSize: 0x20 }
  - { offsetInCU: 0xD36, offset: 0x6EA7, size: 0x8, addend: 0x0, symName: __ZN11Serial_PortD2Ev, symObjAddr: 0x220, symBinAddr: 0x100001C00, symSize: 0x70 }
  - { offsetInCU: 0xD60, offset: 0x6ED1, size: 0x8, addend: 0x0, symName: __ZN11Serial_PortD1Ev, symObjAddr: 0x290, symBinAddr: 0x100001C70, symSize: 0x20 }
  - { offsetInCU: 0xD8A, offset: 0x6EFB, size: 0x8, addend: 0x0, symName: __ZN11Serial_PortD0Ev, symObjAddr: 0x2B0, symBinAddr: 0x100001C90, symSize: 0x50 }
  - { offsetInCU: 0xDB4, offset: 0x6F25, size: 0x8, addend: 0x0, symName: __ZN11Serial_Port12read_messageER17__mavlink_message, symObjAddr: 0x300, symBinAddr: 0x100001CE0, symSize: 0x2B0 }
  - { offsetInCU: 0xE9B, offset: 0x700C, size: 0x8, addend: 0x0, symName: __ZN11Serial_Port10_read_portERh, symObjAddr: 0x5B0, symBinAddr: 0x100001F90, symSize: 0x50 }
  - { offsetInCU: 0xEE0, offset: 0x7051, size: 0x8, addend: 0x0, symName: __ZL18mavlink_parse_charhhP17__mavlink_messageP16__mavlink_status, symObjAddr: 0x600, symBinAddr: 0x100001FE0, symSize: 0xD0 }
  - { offsetInCU: 0xF76, offset: 0x70E7, size: 0x8, addend: 0x0, symName: __ZL26mavlink_msg_to_send_bufferPhPK17__mavlink_message, symObjAddr: 0x6D0, symBinAddr: 0x1000020B0, symSize: 0x270 }
  - { offsetInCU: 0xFEF, offset: 0x7160, size: 0x8, addend: 0x0, symName: __ZN11Serial_Port13write_messageERK17__mavlink_message, symObjAddr: 0x940, symBinAddr: 0x100002320, symSize: 0xB0 }
  - { offsetInCU: 0x1052, offset: 0x71C3, size: 0x8, addend: 0x0, symName: __ZN11Serial_Port11_write_portEPcj, symObjAddr: 0x9F0, symBinAddr: 0x1000023D0, symSize: 0x70 }
  - { offsetInCU: 0x10A6, offset: 0x7217, size: 0x8, addend: 0x0, symName: __ZN11Serial_Port5startEv, symObjAddr: 0xA60, symBinAddr: 0x100002440, symSize: 0x180 }
  - { offsetInCU: 0x10DA, offset: 0x724B, size: 0x8, addend: 0x0, symName: __ZN11Serial_Port10_open_portEPKc, symObjAddr: 0xBE0, symBinAddr: 0x1000025C0, symSize: 0x70 }
  - { offsetInCU: 0x1110, offset: 0x7281, size: 0x8, addend: 0x0, symName: __ZN11Serial_Port11_setup_portEiiibb, symObjAddr: 0xC50, symBinAddr: 0x100002630, symSize: 0x510 }
  - { offsetInCU: 0x1198, offset: 0x7309, size: 0x8, addend: 0x0, symName: __ZN11Serial_Port4stopEv, symObjAddr: 0x1160, symBinAddr: 0x100002B40, symSize: 0x80 }
  - { offsetInCU: 0x11CE, offset: 0x733F, size: 0x8, addend: 0x0, symName: __ZN11Serial_Port10is_runningEv, symObjAddr: 0x11E0, symBinAddr: 0x100002BC0, symSize: 0x20 }
  - { offsetInCU: 0x11F2, offset: 0x7363, size: 0x8, addend: 0x0, symName: __ZN12Generic_PortD1Ev, symObjAddr: 0x1200, symBinAddr: 0x100002BE0, symSize: 0x10 }
  - { offsetInCU: 0x121A, offset: 0x738B, size: 0x8, addend: 0x0, symName: __ZN12Generic_PortD0Ev, symObjAddr: 0x1210, symBinAddr: 0x100002BF0, symSize: 0x10 }
  - { offsetInCU: 0x1242, offset: 0x73B3, size: 0x8, addend: 0x0, symName: __ZL18mavlink_frame_charhhP17__mavlink_messageP16__mavlink_status, symObjAddr: 0x1220, symBinAddr: 0x100002C00, symSize: 0x60 }
  - { offsetInCU: 0x129D, offset: 0x740E, size: 0x8, addend: 0x0, symName: __ZL16_mav_parse_errorP16__mavlink_status, symObjAddr: 0x12D0, symBinAddr: 0x100002CB0, symSize: 0x20 }
  - { offsetInCU: 0x12C7, offset: 0x7438, size: 0x8, addend: 0x0, symName: __ZL22mavlink_start_checksumP17__mavlink_message, symObjAddr: 0x12F0, symBinAddr: 0x100002CD0, symSize: 0x20 }
  - { offsetInCU: 0x12F1, offset: 0x7462, size: 0x8, addend: 0x0, symName: __ZL25mavlink_frame_char_bufferP17__mavlink_messageP16__mavlink_statushS0_S2_, symObjAddr: 0x1310, symBinAddr: 0x100002CF0, symSize: 0x840 }
  - { offsetInCU: 0x13B3, offset: 0x7524, size: 0x8, addend: 0x0, symName: __ZL23mavlink_update_checksumP17__mavlink_messageh, symObjAddr: 0x1B50, symBinAddr: 0x100003530, symSize: 0x30 }
  - { offsetInCU: 0x13EC, offset: 0x755D, size: 0x8, addend: 0x0, symName: __ZL23mavlink_signature_checkP17__mavlink_signingP25__mavlink_signing_streamsPK17__mavlink_message, symObjAddr: 0x1C60, symBinAddr: 0x100003640, symSize: 0x380 }
  - { offsetInCU: 0x14E8, offset: 0x7659, size: 0x8, addend: 0x0, symName: __ZL14crc_accumulatehPt, symObjAddr: 0x1FE0, symBinAddr: 0x1000039C0, symSize: 0x70 }
  - { offsetInCU: 0x152C, offset: 0x769D, size: 0x8, addend: 0x0, symName: __ZL19mavlink_sha256_initP18mavlink_sha256_ctx, symObjAddr: 0x2050, symBinAddr: 0x100003A30, symSize: 0x80 }
  - { offsetInCU: 0x1554, offset: 0x76C5, size: 0x8, addend: 0x0, symName: __ZL21mavlink_sha256_updateP18mavlink_sha256_ctxPKvj, symObjAddr: 0x20D0, symBinAddr: 0x100003AB0, symSize: 0x1D0 }
  - { offsetInCU: 0x164C, offset: 0x77BD, size: 0x8, addend: 0x0, symName: __ZL23mavlink_sha256_final_48P18mavlink_sha256_ctxPh, symObjAddr: 0x22A0, symBinAddr: 0x100003C80, symSize: 0x1E0 }
  - { offsetInCU: 0x16C0, offset: 0x7831, size: 0x8, addend: 0x0, symName: __ZL19mavlink_sha256_calcP18mavlink_sha256_ctxPj, symObjAddr: 0x2480, symBinAddr: 0x100003E60, symSize: 0x490 }
  - { offsetInCU: 0x17BA, offset: 0x792B, size: 0x8, addend: 0x0, symName: __ZL8crc_initPt, symObjAddr: 0x2910, symBinAddr: 0x1000042F0, symSize: 0x20 }
  - { offsetInCU: 0x17E2, offset: 0x7953, size: 0x8, addend: 0x0, symName: __ZL17_mav_trim_payloadPKch, symObjAddr: 0x2930, symBinAddr: 0x100004310, symSize: 0x5E }
  - { offsetInCU: 0x46, offset: 0x7B82, size: 0x8, addend: 0x0, symName: __ZL21mavlink_get_msg_entryj, symObjAddr: 0x1900, symBinAddr: 0x100005C10, symSize: 0xE0 }
  - { offsetInCU: 0x71, offset: 0x7BAD, size: 0x8, addend: 0x0, symName: __ZZL21mavlink_get_msg_entryjE20mavlink_message_crcs, symObjAddr: 0x2A60, symBinAddr: 0x10000AAC0, symSize: 0x0 }
  - { offsetInCU: 0xF0, offset: 0x7C2C, size: 0x8, addend: 0x0, symName: __ZL27mavlink_sha256_constant_256, symObjAddr: 0x3220, symBinAddr: 0x10000B280, symSize: 0x0 }
  - { offsetInCU: 0x10E, offset: 0x7C4A, size: 0x8, addend: 0x0, symName: __ZL26mavlink_get_channel_bufferh, symObjAddr: 0x1000, symBinAddr: 0x100005310, symSize: 0x30 }
  - { offsetInCU: 0x137, offset: 0x7C73, size: 0x8, addend: 0x0, symName: __ZZL26mavlink_get_channel_bufferhE16m_mavlink_buffer, symObjAddr: 0xA500, symBinAddr: 0x1000114C0, symSize: 0x0 }
  - { offsetInCU: 0x169, offset: 0x7CA5, size: 0x8, addend: 0x0, symName: __ZL26mavlink_get_channel_statush, symObjAddr: 0x1030, symBinAddr: 0x100005340, symSize: 0x20 }
  - { offsetInCU: 0x192, offset: 0x7CCE, size: 0x8, addend: 0x0, symName: __ZZL26mavlink_get_channel_statushE16m_mavlink_status, symObjAddr: 0xB730, symBinAddr: 0x1000126F0, symSize: 0x0 }
  - { offsetInCU: 0x96D, offset: 0x84A9, size: 0x8, addend: 0x0, symName: __ZN8UDP_PortC2EPKci, symObjAddr: 0x0, symBinAddr: 0x100004370, symSize: 0x90 }
  - { offsetInCU: 0x9B3, offset: 0x84EF, size: 0x8, addend: 0x0, symName: __ZN8UDP_Port19initialize_defaultsEv, symObjAddr: 0xB0, symBinAddr: 0x100004400, symSize: 0xA0 }
  - { offsetInCU: 0x9E7, offset: 0x8523, size: 0x8, addend: 0x0, symName: __ZN8UDP_PortC1EPKci, symObjAddr: 0x170, symBinAddr: 0x1000044A0, symSize: 0x30 }
  - { offsetInCU: 0xA2D, offset: 0x8569, size: 0x8, addend: 0x0, symName: __ZN8UDP_PortC2Ev, symObjAddr: 0x1A0, symBinAddr: 0x1000044D0, symSize: 0x70 }
  - { offsetInCU: 0xA57, offset: 0x8593, size: 0x8, addend: 0x0, symName: __ZN8UDP_PortC1Ev, symObjAddr: 0x210, symBinAddr: 0x100004540, symSize: 0x20 }
  - { offsetInCU: 0xA81, offset: 0x85BD, size: 0x8, addend: 0x0, symName: __ZN8UDP_PortD2Ev, symObjAddr: 0x230, symBinAddr: 0x100004560, symSize: 0x70 }
  - { offsetInCU: 0xAAB, offset: 0x85E7, size: 0x8, addend: 0x0, symName: __ZN8UDP_PortD1Ev, symObjAddr: 0x2A0, symBinAddr: 0x1000045D0, symSize: 0x20 }
  - { offsetInCU: 0xAD5, offset: 0x8611, size: 0x8, addend: 0x0, symName: __ZN8UDP_PortD0Ev, symObjAddr: 0x2C0, symBinAddr: 0x1000045F0, symSize: 0x50 }
  - { offsetInCU: 0xAFF, offset: 0x863B, size: 0x8, addend: 0x0, symName: __ZN8UDP_Port12read_messageER17__mavlink_message, symObjAddr: 0x310, symBinAddr: 0x100004640, symSize: 0x2D0 }
  - { offsetInCU: 0xBE6, offset: 0x8722, size: 0x8, addend: 0x0, symName: __ZN8UDP_Port10_read_portERh, symObjAddr: 0x5E0, symBinAddr: 0x100004910, symSize: 0x1F0 }
  - { offsetInCU: 0xC57, offset: 0x8793, size: 0x8, addend: 0x0, symName: __ZL18mavlink_parse_charhhP17__mavlink_messageP16__mavlink_status, symObjAddr: 0x7D0, symBinAddr: 0x100004B00, symSize: 0xD0 }
  - { offsetInCU: 0xCED, offset: 0x8829, size: 0x8, addend: 0x0, symName: __ZL26mavlink_msg_to_send_bufferPhPK17__mavlink_message, symObjAddr: 0x8A0, symBinAddr: 0x100004BD0, symSize: 0x270 }
  - { offsetInCU: 0xD66, offset: 0x88A2, size: 0x8, addend: 0x0, symName: __ZN8UDP_Port13write_messageERK17__mavlink_message, symObjAddr: 0xB10, symBinAddr: 0x100004E40, symSize: 0x100 }
  - { offsetInCU: 0xDC9, offset: 0x8905, size: 0x8, addend: 0x0, symName: __ZN8UDP_Port11_write_portEPcj, symObjAddr: 0xC10, symBinAddr: 0x100004F40, symSize: 0x110 }
  - { offsetInCU: 0xE3A, offset: 0x8976, size: 0x8, addend: 0x0, symName: __ZN8UDP_Port5startEv, symObjAddr: 0xD20, symBinAddr: 0x100005050, symSize: 0x190 }
  - { offsetInCU: 0xE6E, offset: 0x89AA, size: 0x8, addend: 0x0, symName: __ZL12_OSSwapInt16t, symObjAddr: 0xEB0, symBinAddr: 0x1000051E0, symSize: 0x20 }
  - { offsetInCU: 0xE9A, offset: 0x89D6, size: 0x8, addend: 0x0, symName: __ZN8UDP_Port4stopEv, symObjAddr: 0xED0, symBinAddr: 0x100005200, symSize: 0x90 }
  - { offsetInCU: 0xED0, offset: 0x8A0C, size: 0x8, addend: 0x0, symName: __ZN8UDP_Port10is_runningEv, symObjAddr: 0xF60, symBinAddr: 0x100005290, symSize: 0x20 }
  - { offsetInCU: 0xEF4, offset: 0x8A30, size: 0x8, addend: 0x0, symName: __ZL18mavlink_frame_charhhP17__mavlink_messageP16__mavlink_status, symObjAddr: 0xFA0, symBinAddr: 0x1000052B0, symSize: 0x60 }
  - { offsetInCU: 0xF4F, offset: 0x8A8B, size: 0x8, addend: 0x0, symName: __ZL16_mav_parse_errorP16__mavlink_status, symObjAddr: 0x1050, symBinAddr: 0x100005360, symSize: 0x20 }
  - { offsetInCU: 0xF79, offset: 0x8AB5, size: 0x8, addend: 0x0, symName: __ZL22mavlink_start_checksumP17__mavlink_message, symObjAddr: 0x1070, symBinAddr: 0x100005380, symSize: 0x20 }
  - { offsetInCU: 0xFA3, offset: 0x8ADF, size: 0x8, addend: 0x0, symName: __ZL25mavlink_frame_char_bufferP17__mavlink_messageP16__mavlink_statushS0_S2_, symObjAddr: 0x1090, symBinAddr: 0x1000053A0, symSize: 0x840 }
  - { offsetInCU: 0x1065, offset: 0x8BA1, size: 0x8, addend: 0x0, symName: __ZL23mavlink_update_checksumP17__mavlink_messageh, symObjAddr: 0x18D0, symBinAddr: 0x100005BE0, symSize: 0x30 }
  - { offsetInCU: 0x109E, offset: 0x8BDA, size: 0x8, addend: 0x0, symName: __ZL23mavlink_signature_checkP17__mavlink_signingP25__mavlink_signing_streamsPK17__mavlink_message, symObjAddr: 0x19E0, symBinAddr: 0x100005CF0, symSize: 0x380 }
  - { offsetInCU: 0x119A, offset: 0x8CD6, size: 0x8, addend: 0x0, symName: __ZL14crc_accumulatehPt, symObjAddr: 0x1D60, symBinAddr: 0x100006070, symSize: 0x70 }
  - { offsetInCU: 0x11DE, offset: 0x8D1A, size: 0x8, addend: 0x0, symName: __ZL19mavlink_sha256_initP18mavlink_sha256_ctx, symObjAddr: 0x1DD0, symBinAddr: 0x1000060E0, symSize: 0x80 }
  - { offsetInCU: 0x1206, offset: 0x8D42, size: 0x8, addend: 0x0, symName: __ZL21mavlink_sha256_updateP18mavlink_sha256_ctxPKvj, symObjAddr: 0x1E50, symBinAddr: 0x100006160, symSize: 0x1D0 }
  - { offsetInCU: 0x12FE, offset: 0x8E3A, size: 0x8, addend: 0x0, symName: __ZL23mavlink_sha256_final_48P18mavlink_sha256_ctxPh, symObjAddr: 0x2020, symBinAddr: 0x100006330, symSize: 0x1E0 }
  - { offsetInCU: 0x1372, offset: 0x8EAE, size: 0x8, addend: 0x0, symName: __ZL19mavlink_sha256_calcP18mavlink_sha256_ctxPj, symObjAddr: 0x2200, symBinAddr: 0x100006510, symSize: 0x490 }
  - { offsetInCU: 0x146C, offset: 0x8FA8, size: 0x8, addend: 0x0, symName: __ZL8crc_initPt, symObjAddr: 0x2690, symBinAddr: 0x1000069A0, symSize: 0x20 }
  - { offsetInCU: 0x1494, offset: 0x8FD0, size: 0x8, addend: 0x0, symName: __ZL17_mav_trim_payloadPKch, symObjAddr: 0x26B0, symBinAddr: 0x1000069C0, symSize: 0x5E }
  - { offsetInCU: 0x26, offset: 0x914D, size: 0x8, addend: 0x0, symName: __Z13get_time_usecv, symObjAddr: 0x0, symBinAddr: 0x100006A20, symSize: 0x30 }
  - { offsetInCU: 0x33, offset: 0x915A, size: 0x8, addend: 0x0, symName: __Z13get_time_usecv, symObjAddr: 0x0, symBinAddr: 0x100006A20, symSize: 0x30 }
  - { offsetInCU: 0x5C, offset: 0x9183, size: 0x8, addend: 0x0, symName: __ZZ13get_time_usecvE11_time_stamp, symObjAddr: 0x14450, symBinAddr: 0x100012970, symSize: 0x0 }
  - { offsetInCU: 0xBF, offset: 0x91E6, size: 0x8, addend: 0x0, symName: __ZL26mavlink_get_channel_statush, symObjAddr: 0x22D0, symBinAddr: 0x100008CF0, symSize: 0x20 }
  - { offsetInCU: 0xE8, offset: 0x920F, size: 0x8, addend: 0x0, symName: __ZZL26mavlink_get_channel_statushE16m_mavlink_status, symObjAddr: 0x14460, symBinAddr: 0x100012980, symSize: 0x0 }
  - { offsetInCU: 0x13B, offset: 0x9262, size: 0x8, addend: 0x0, symName: __ZL27mavlink_sha256_constant_256, symObjAddr: 0x3810, symBinAddr: 0x10000B390, symSize: 0x0 }
  - { offsetInCU: 0x2DBA, offset: 0xBEE1, size: 0x8, addend: 0x0, symName: __Z12set_positionfffR41__mavlink_set_position_target_local_ned_t, symObjAddr: 0x30, symBinAddr: 0x100006A50, symSize: 0xA0 }
  - { offsetInCU: 0x2E0C, offset: 0xBF33, size: 0x8, addend: 0x0, symName: __Z12set_velocityfffR41__mavlink_set_position_target_local_ned_t, symObjAddr: 0xD0, symBinAddr: 0x100006AF0, symSize: 0xA0 }
  - { offsetInCU: 0x2E5E, offset: 0xBF85, size: 0x8, addend: 0x0, symName: __Z16set_accelerationfffR41__mavlink_set_position_target_local_ned_t, symObjAddr: 0x170, symBinAddr: 0x100006B90, symSize: 0x60 }
  - { offsetInCU: 0x2EB0, offset: 0xBFD7, size: 0x8, addend: 0x0, symName: __Z7set_yawfR41__mavlink_set_position_target_local_ned_t, symObjAddr: 0x1D0, symBinAddr: 0x100006BF0, symSize: 0x60 }
  - { offsetInCU: 0x2EE6, offset: 0xC00D, size: 0x8, addend: 0x0, symName: __Z12set_yaw_ratefR41__mavlink_set_position_target_local_ned_t, symObjAddr: 0x230, symBinAddr: 0x100006C50, symSize: 0x30 }
  - { offsetInCU: 0x2F1C, offset: 0xC043, size: 0x8, addend: 0x0, symName: __ZN19Autopilot_InterfaceC2EP12Generic_Port, symObjAddr: 0x260, symBinAddr: 0x100006C80, symSize: 0xA0 }
  - { offsetInCU: 0x2F54, offset: 0xC07B, size: 0x8, addend: 0x0, symName: __ZN16Mavlink_MessagesC1Ev, symObjAddr: 0x300, symBinAddr: 0x100006D20, symSize: 0x20 }
  - { offsetInCU: 0x2F83, offset: 0xC0AA, size: 0x8, addend: 0x0, symName: __ZN19Autopilot_InterfaceUt_C1Ev, symObjAddr: 0x320, symBinAddr: 0x100006D40, symSize: 0x20 }
  - { offsetInCU: 0x2FAF, offset: 0xC0D6, size: 0x8, addend: 0x0, symName: __ZN19Autopilot_InterfaceC1EP12Generic_Port, symObjAddr: 0x340, symBinAddr: 0x100006D60, symSize: 0x30 }
  - { offsetInCU: 0x2FE7, offset: 0xC10E, size: 0x8, addend: 0x0, symName: __ZN19Autopilot_InterfaceD2Ev, symObjAddr: 0x370, symBinAddr: 0x100006D90, symSize: 0x30 }
  - { offsetInCU: 0x3011, offset: 0xC138, size: 0x8, addend: 0x0, symName: __ZN19Autopilot_InterfaceUt_D1Ev, symObjAddr: 0x3A0, symBinAddr: 0x100006DC0, symSize: 0x20 }
  - { offsetInCU: 0x303D, offset: 0xC164, size: 0x8, addend: 0x0, symName: __ZN19Autopilot_InterfaceD1Ev, symObjAddr: 0x3C0, symBinAddr: 0x100006DE0, symSize: 0x20 }
  - { offsetInCU: 0x3067, offset: 0xC18E, size: 0x8, addend: 0x0, symName: __ZN19Autopilot_Interface15update_setpointE41__mavlink_set_position_target_local_ned_t, symObjAddr: 0x3E0, symBinAddr: 0x100006E00, symSize: 0x60 }
  - { offsetInCU: 0x30C7, offset: 0xC1EE, size: 0x8, addend: 0x0, symName: __ZNSt3__110lock_guardINS_5mutexEEC1B7v160006ERS1_, symObjAddr: 0x440, symBinAddr: 0x100006E60, symSize: 0x30 }
  - { offsetInCU: 0x30FD, offset: 0xC224, size: 0x8, addend: 0x0, symName: __ZNSt3__110lock_guardINS_5mutexEED1B7v160006Ev, symObjAddr: 0x470, symBinAddr: 0x100006E90, symSize: 0x20 }
  - { offsetInCU: 0x3125, offset: 0xC24C, size: 0x8, addend: 0x0, symName: __ZN19Autopilot_Interface13read_messagesEv, symObjAddr: 0x490, symBinAddr: 0x100006EB0, symSize: 0x4F0 }
  - { offsetInCU: 0x3196, offset: 0xC2BD, size: 0x8, addend: 0x0, symName: __ZN11Time_StampsC1Ev, symObjAddr: 0x980, symBinAddr: 0x1000073A0, symSize: 0x20 }
  - { offsetInCU: 0x31BE, offset: 0xC2E5, size: 0x8, addend: 0x0, symName: __ZL28mavlink_msg_heartbeat_decodePK17__mavlink_messageP21__mavlink_heartbeat_t, symObjAddr: 0x9A0, symBinAddr: 0x1000073C0, symSize: 0x80 }
  - { offsetInCU: 0x3206, offset: 0xC32D, size: 0x8, addend: 0x0, symName: __ZL29mavlink_msg_sys_status_decodePK17__mavlink_messageP22__mavlink_sys_status_t, symObjAddr: 0xA20, symBinAddr: 0x100007440, symSize: 0x80 }
  - { offsetInCU: 0x324E, offset: 0xC375, size: 0x8, addend: 0x0, symName: __ZL33mavlink_msg_battery_status_decodePK17__mavlink_messageP26__mavlink_battery_status_t, symObjAddr: 0xAA0, symBinAddr: 0x1000074C0, symSize: 0x80 }
  - { offsetInCU: 0x3296, offset: 0xC3BD, size: 0x8, addend: 0x0, symName: __ZL31mavlink_msg_radio_status_decodePK17__mavlink_messageP24__mavlink_radio_status_t, symObjAddr: 0xB20, symBinAddr: 0x100007540, symSize: 0x80 }
  - { offsetInCU: 0x32DE, offset: 0xC405, size: 0x8, addend: 0x0, symName: __ZL37mavlink_msg_local_position_ned_decodePK17__mavlink_messageP30__mavlink_local_position_ned_t, symObjAddr: 0xBA0, symBinAddr: 0x1000075C0, symSize: 0x80 }
  - { offsetInCU: 0x3326, offset: 0xC44D, size: 0x8, addend: 0x0, symName: __ZL38mavlink_msg_global_position_int_decodePK17__mavlink_messageP31__mavlink_global_position_int_t, symObjAddr: 0xC20, symBinAddr: 0x100007640, symSize: 0x80 }
  - { offsetInCU: 0x336E, offset: 0xC495, size: 0x8, addend: 0x0, symName: __ZL44mavlink_msg_position_target_local_ned_decodePK17__mavlink_messageP37__mavlink_position_target_local_ned_t, symObjAddr: 0xCA0, symBinAddr: 0x1000076C0, symSize: 0x80 }
  - { offsetInCU: 0x33B6, offset: 0xC4DD, size: 0x8, addend: 0x0, symName: __ZL45mavlink_msg_position_target_global_int_decodePK17__mavlink_messageP38__mavlink_position_target_global_int_t, symObjAddr: 0xD20, symBinAddr: 0x100007740, symSize: 0x80 }
  - { offsetInCU: 0x33FE, offset: 0xC525, size: 0x8, addend: 0x0, symName: __ZL30mavlink_msg_highres_imu_decodePK17__mavlink_messageP23__mavlink_highres_imu_t, symObjAddr: 0xDA0, symBinAddr: 0x1000077C0, symSize: 0x80 }
  - { offsetInCU: 0x3446, offset: 0xC56D, size: 0x8, addend: 0x0, symName: __ZL27mavlink_msg_attitude_decodePK17__mavlink_messageP20__mavlink_attitude_t, symObjAddr: 0xE20, symBinAddr: 0x100007840, symSize: 0x80 }
  - { offsetInCU: 0x348E, offset: 0xC5B5, size: 0x8, addend: 0x0, symName: __ZN19Autopilot_Interface13write_messageE17__mavlink_message, symObjAddr: 0xEA0, symBinAddr: 0x1000078C0, symSize: 0x50 }
  - { offsetInCU: 0x34D3, offset: 0xC5FA, size: 0x8, addend: 0x0, symName: __ZN19Autopilot_Interface15write_heartbeatEv, symObjAddr: 0xEF0, symBinAddr: 0x100007910, symSize: 0x130 }
  - { offsetInCU: 0x352B, offset: 0xC652, size: 0x8, addend: 0x0, symName: __ZL26mavlink_msg_heartbeat_packhhP17__mavlink_messagehhhjh, symObjAddr: 0x1020, symBinAddr: 0x100007A40, symSize: 0xC0 }
  - { offsetInCU: 0x35C7, offset: 0xC6EE, size: 0x8, addend: 0x0, symName: __ZL26mavlink_msg_to_send_bufferPhPK17__mavlink_message, symObjAddr: 0x10E0, symBinAddr: 0x100007B00, symSize: 0x270 }
  - { offsetInCU: 0x3640, offset: 0xC767, size: 0x8, addend: 0x0, symName: __ZN19Autopilot_Interface14write_setpointEv, symObjAddr: 0x1350, symBinAddr: 0x100007D70, symSize: 0x180 }
  - { offsetInCU: 0x36B6, offset: 0xC7DD, size: 0x8, addend: 0x0, symName: __ZL48mavlink_msg_set_position_target_local_ned_encodehhP17__mavlink_messagePK41__mavlink_set_position_target_local_ned_t, symObjAddr: 0x14D0, symBinAddr: 0x100007EF0, symSize: 0x100 }
  - { offsetInCU: 0x370C, offset: 0xC833, size: 0x8, addend: 0x0, symName: __ZN19Autopilot_Interface23enable_offboard_controlEv, symObjAddr: 0x15D0, symBinAddr: 0x100007FF0, symSize: 0x90 }
  - { offsetInCU: 0x3750, offset: 0xC877, size: 0x8, addend: 0x0, symName: __ZN19Autopilot_Interface23toggle_offboard_controlEb, symObjAddr: 0x1660, symBinAddr: 0x100008080, symSize: 0x110 }
  - { offsetInCU: 0x37B8, offset: 0xC8DF, size: 0x8, addend: 0x0, symName: __ZN19Autopilot_Interface24disable_offboard_controlEv, symObjAddr: 0x1770, symBinAddr: 0x100008190, symSize: 0x80 }
  - { offsetInCU: 0x37FC, offset: 0xC923, size: 0x8, addend: 0x0, symName: __ZN19Autopilot_Interface10arm_disarmEb, symObjAddr: 0x17F0, symBinAddr: 0x100008210, symSize: 0x150 }
  - { offsetInCU: 0x3864, offset: 0xC98B, size: 0x8, addend: 0x0, symName: __ZL31mavlink_msg_command_long_encodehhP17__mavlink_messagePK24__mavlink_command_long_t, symObjAddr: 0x1940, symBinAddr: 0x100008360, symSize: 0xC0 }
  - { offsetInCU: 0x38BA, offset: 0xC9E1, size: 0x8, addend: 0x0, symName: __ZN19Autopilot_Interface5startEv, symObjAddr: 0x1A00, symBinAddr: 0x100008420, symSize: 0x340 }
  - { offsetInCU: 0x3900, offset: 0xCA27, size: 0x8, addend: 0x0, symName: __Z37start_autopilot_interface_read_threadPv, symObjAddr: 0x1D40, symBinAddr: 0x100008760, symSize: 0x30 }
  - { offsetInCU: 0x393E, offset: 0xCA65, size: 0x8, addend: 0x0, symName: __Z38start_autopilot_interface_write_threadPv, symObjAddr: 0x1D70, symBinAddr: 0x100008790, symSize: 0x30 }
  - { offsetInCU: 0x397C, offset: 0xCAA3, size: 0x8, addend: 0x0, symName: __ZN19Autopilot_Interface4stopEv, symObjAddr: 0x1DA0, symBinAddr: 0x1000087C0, symSize: 0x70 }
  - { offsetInCU: 0x39A3, offset: 0xCACA, size: 0x8, addend: 0x0, symName: __ZN19Autopilot_Interface17start_read_threadEv, symObjAddr: 0x1E10, symBinAddr: 0x100008830, symSize: 0x50 }
  - { offsetInCU: 0x39CA, offset: 0xCAF1, size: 0x8, addend: 0x0, symName: __ZN19Autopilot_Interface11read_threadEv, symObjAddr: 0x1E60, symBinAddr: 0x100008880, symSize: 0x60 }
  - { offsetInCU: 0x39F1, offset: 0xCB18, size: 0x8, addend: 0x0, symName: __ZN19Autopilot_Interface18start_write_threadEv, symObjAddr: 0x1EC0, symBinAddr: 0x1000088E0, symSize: 0x60 }
  - { offsetInCU: 0x3A18, offset: 0xCB3F, size: 0x8, addend: 0x0, symName: __ZN19Autopilot_Interface12write_threadEv, symObjAddr: 0x1F20, symBinAddr: 0x100008940, symSize: 0xC0 }
  - { offsetInCU: 0x3A6C, offset: 0xCB93, size: 0x8, addend: 0x0, symName: __ZN19Autopilot_Interface11handle_quitEi, symObjAddr: 0x1FE0, symBinAddr: 0x100008A00, symSize: 0xA0 }
  - { offsetInCU: 0x3AB1, offset: 0xCBD8, size: 0x8, addend: 0x0, symName: __ZN16Mavlink_MessagesC2Ev, symObjAddr: 0x2080, symBinAddr: 0x100008AA0, symSize: 0x30 }
  - { offsetInCU: 0x3ADB, offset: 0xCC02, size: 0x8, addend: 0x0, symName: __ZN19Autopilot_InterfaceUt_C2Ev, symObjAddr: 0x20B0, symBinAddr: 0x100008AD0, symSize: 0x20 }
  - { offsetInCU: 0x3B07, offset: 0xCC2E, size: 0x8, addend: 0x0, symName: __ZNSt3__15mutexC1B7v160006Ev, symObjAddr: 0x20D0, symBinAddr: 0x100008AF0, symSize: 0x20 }
  - { offsetInCU: 0x3B2F, offset: 0xCC56, size: 0x8, addend: 0x0, symName: __ZNSt3__15mutexC2B7v160006Ev, symObjAddr: 0x20F0, symBinAddr: 0x100008B10, symSize: 0x30 }
  - { offsetInCU: 0x3B57, offset: 0xCC7E, size: 0x8, addend: 0x0, symName: __ZN19Autopilot_InterfaceUt_D2Ev, symObjAddr: 0x2120, symBinAddr: 0x100008B40, symSize: 0x20 }
  - { offsetInCU: 0x3B83, offset: 0xCCAA, size: 0x8, addend: 0x0, symName: __ZN11Time_StampsC2Ev, symObjAddr: 0x2140, symBinAddr: 0x100008B60, symSize: 0x20 }
  - { offsetInCU: 0x3BAB, offset: 0xCCD2, size: 0x8, addend: 0x0, symName: __ZN11Time_Stamps16reset_timestampsEv, symObjAddr: 0x2160, symBinAddr: 0x100008B80, symSize: 0x60 }
  - { offsetInCU: 0x3BCF, offset: 0xCCF6, size: 0x8, addend: 0x0, symName: __ZL24mavlink_finalize_messageP17__mavlink_messagehhhhh, symObjAddr: 0x21C0, symBinAddr: 0x100008BE0, symSize: 0x80 }
  - { offsetInCU: 0x3C48, offset: 0xCD6F, size: 0x8, addend: 0x0, symName: __ZL29mavlink_finalize_message_chanP17__mavlink_messagehhhhhh, symObjAddr: 0x2240, symBinAddr: 0x100008C60, symSize: 0x90 }
  - { offsetInCU: 0x3CDF, offset: 0xCE06, size: 0x8, addend: 0x0, symName: __ZL31mavlink_finalize_message_bufferP17__mavlink_messagehhP16__mavlink_statushhh, symObjAddr: 0x22F0, symBinAddr: 0x100008D10, symSize: 0x370 }
  - { offsetInCU: 0x3DA5, offset: 0xCECC, size: 0x8, addend: 0x0, symName: __ZL17_mav_trim_payloadPKch, symObjAddr: 0x2660, symBinAddr: 0x100009080, symSize: 0x60 }
  - { offsetInCU: 0x3DDF, offset: 0xCF06, size: 0x8, addend: 0x0, symName: __ZL13crc_calculatePKht, symObjAddr: 0x26C0, symBinAddr: 0x1000090E0, symSize: 0x60 }
  - { offsetInCU: 0x3E27, offset: 0xCF4E, size: 0x8, addend: 0x0, symName: __ZL21crc_accumulate_bufferPtPKct, symObjAddr: 0x2720, symBinAddr: 0x100009140, symSize: 0x60 }
  - { offsetInCU: 0x3E79, offset: 0xCFA0, size: 0x8, addend: 0x0, symName: __ZL14crc_accumulatehPt, symObjAddr: 0x2780, symBinAddr: 0x1000091A0, symSize: 0x70 }
  - { offsetInCU: 0x3EBD, offset: 0xCFE4, size: 0x8, addend: 0x0, symName: __ZL19mavlink_sign_packetP17__mavlink_signingPhPKhhS3_hS3_, symObjAddr: 0x27F0, symBinAddr: 0x100009210, symSize: 0x130 }
  - { offsetInCU: 0x3F79, offset: 0xD0A0, size: 0x8, addend: 0x0, symName: __ZL8crc_initPt, symObjAddr: 0x2920, symBinAddr: 0x100009340, symSize: 0x20 }
  - { offsetInCU: 0x3FA1, offset: 0xD0C8, size: 0x8, addend: 0x0, symName: __ZL19mavlink_sha256_initP18mavlink_sha256_ctx, symObjAddr: 0x2940, symBinAddr: 0x100009360, symSize: 0x80 }
  - { offsetInCU: 0x3FC9, offset: 0xD0F0, size: 0x8, addend: 0x0, symName: __ZL21mavlink_sha256_updateP18mavlink_sha256_ctxPKvj, symObjAddr: 0x29C0, symBinAddr: 0x1000093E0, symSize: 0x1D0 }
  - { offsetInCU: 0x40C1, offset: 0xD1E8, size: 0x8, addend: 0x0, symName: __ZL23mavlink_sha256_final_48P18mavlink_sha256_ctxPh, symObjAddr: 0x2B90, symBinAddr: 0x1000095B0, symSize: 0x1E0 }
  - { offsetInCU: 0x4135, offset: 0xD25C, size: 0x8, addend: 0x0, symName: __ZL19mavlink_sha256_calcP18mavlink_sha256_ctxPj, symObjAddr: 0x2D70, symBinAddr: 0x100009790, symSize: 0x490 }
  - { offsetInCU: 0x422F, offset: 0xD356, size: 0x8, addend: 0x0, symName: __ZL46mavlink_msg_set_position_target_local_ned_packhhP17__mavlink_messagejhhhtfffffffffff, symObjAddr: 0x3200, symBinAddr: 0x100009C20, symSize: 0x190 }
  - { offsetInCU: 0x4366, offset: 0xD48D, size: 0x8, addend: 0x0, symName: __ZL29mavlink_msg_command_long_packhhP17__mavlink_messagehhthfffffff, symObjAddr: 0x3390, symBinAddr: 0x100009DB0, symSize: 0x130 }
  - { offsetInCU: 0x4457, offset: 0xD57E, size: 0x8, addend: 0x0, symName: __ZNSt3__110lock_guardINS_5mutexEEC2B7v160006ERS1_, symObjAddr: 0x34C0, symBinAddr: 0x100009EE0, symSize: 0x30 }
  - { offsetInCU: 0x448D, offset: 0xD5B4, size: 0x8, addend: 0x0, symName: __ZNSt3__110lock_guardINS_5mutexEED2B7v160006Ev, symObjAddr: 0x34F0, symBinAddr: 0x100009F10, symSize: 0x1E }
...
